{
"type": "FeatureCollection",
"name": "grouped_ev_stations",
"crs": { "type": "name", "properties": { "name": "urn:ogc:def:crs:OGC:1.3:CRS84" } },
"features": [
{ "type": "Feature", "properties": { "Station Name": "2+U - Tesla Supercharger", "EV J3400 Connector Count": 4, "City": "Seattle" }, "geometry": { "type": "Point", "coordinates": [ -122.337495, 47.606601 ] } },
{ "type": "Feature", "properties": { "Station Name": "400 Fairview - Tesla Destination", "EV J3400 Connector Count": 3, "City": "Seattle" }, "geometry": { "type": "Point", "coordinates": [ -122.333913, 47.622544 ] } },
{ "type": "Feature", "properties": { "Station Name": "AGC of Washington - Tesla Destination", "EV J3400 Connector Count": 6, "City": "Seattle" }, "geometry": { "type": "Point", "coordinates": [ -122.33959, 47.630012 ] } },
{ "type": "Feature", "properties": { "Station Name": "Ballard Blocks - Tesla Supercharger", "EV J3400 Connector Count": 8, "City": "Seattle" }, "geometry": { "type": "Point", "coordinates": [ -122.37504, 47.662554 ] } },
{ "type": "Feature", "properties": { "Station Name": "Bedrooms & More - Tesla Destination", "EV J3400 Connector Count": 2, "City": "Seattle" }, "geometry": { "type": "Point", "coordinates": [ -122.324913, 47.661523 ] } },
{ "type": "Feature", "properties": { "Station Name": "Cedarbrook Lodge - Tesla Destination", "EV J3400 Connector Count": 1, "City": "Seattle" }, "geometry": { "type": "Point", "coordinates": [ -122.287623, 47.437313 ] } },
{ "type": "Feature", "properties": { "Station Name": "Fairmont Olympic Hotel - Seattle - Tesla Destination", "EV J3400 Connector Count": 7, "City": "Seattle" }, "geometry": { "type": "Point", "coordinates": [ -122.334028, 47.608197 ] } },
{ "type": "Feature", "properties": { "Station Name": "Four Points by Sheraton Downtown Seattle Center - Tesla Destination", "EV J3400 Connector Count": 2, "City": "Seattle" }, "geometry": { "type": "Point", "coordinates": [ -122.344596, 47.625378 ] } },
{ "type": "Feature", "properties": { "Station Name": "Four Seasons Hotel Seattle - Tesla Destination", "EV J3400 Connector Count": 2, "City": "Seattle" }, "geometry": { "type": "Point", "coordinates": [ -122.339418, 47.607651 ] } },
{ "type": "Feature", "properties": { "Station Name": "Fred Meyer - Tesla Supercharger", "EV J3400 Connector Count": 12, "City": "Seattle" }, "geometry": { "type": "Point", "coordinates": [ -122.370395, 47.661146 ] } },
{ "type": "Feature", "properties": { "Station Name": "Hampton Inn and Suites Seattle-Downtown - Tesla Destination", "EV J3400 Connector Count": 2, "City": "Seattle" }, "geometry": { "type": "Point", "coordinates": [ -122.346886, 47.625675 ] } },
{ "type": "Feature", "properties": { "Station Name": "Homewood Suites by Hilton Seattle Downtown - Tesla Destination", "EV J3400 Connector Count": 3, "City": "Seattle" }, "geometry": { "type": "Point", "coordinates": [ -122.359182, 47.620565 ] } },
{ "type": "Feature", "properties": { "Station Name": "Hotel 1000 - Tesla Destination", "EV J3400 Connector Count": 2, "City": "Seattle" }, "geometry": { "type": "Point", "coordinates": [ -122.336189, 47.604904 ] } },
{ "type": "Feature", "properties": { "Station Name": "Hotel Max - Tesla Destination", "EV J3400 Connector Count": 1, "City": "Seattle" }, "geometry": { "type": "Point", "coordinates": [ -122.336357, 47.614141 ] } },
{ "type": "Feature", "properties": { "Station Name": "Hotel Theodore - Tesla Destination", "EV J3400 Connector Count": 3, "City": "Seattle" }, "geometry": { "type": "Point", "coordinates": [ -122.334168, 47.612347 ] } },
{ "type": "Feature", "properties": { "Station Name": "Millennium Tower - Tesla Destination", "EV J3400 Connector Count": 6, "City": "Seattle" }, "geometry": { "type": "Point", "coordinates": [ -122.331591, 47.599191 ] } },
{ "type": "Feature", "properties": { "Station Name": "Motif Seattle - Tesla Destination", "EV J3400 Connector Count": 2, "City": "Seattle" }, "geometry": { "type": "Point", "coordinates": [ -122.335179, 47.610166 ] } },
{ "type": "Feature", "properties": { "Station Name": "Northgate Mall - Tesla Supercharger", "EV J3400 Connector Count": 16, "City": "Seattle" }, "geometry": { "type": "Point", "coordinates": [ -122.327778, 47.706589 ] } },
{ "type": "Feature", "properties": { "Station Name": "Northway West Office Building - Tesla Supercharger", "EV J3400 Connector Count": 12, "City": "Seattle" }, "geometry": { "type": "Point", "coordinates": [ -122.333572, 47.706949 ] } },
{ "type": "Feature", "properties": { "Station Name": "Puget Sound Solar - Tesla Destination", "EV J3400 Connector Count": 6, "City": "Seattle" }, "geometry": { "type": "Point", "coordinates": [ -122.311677, 47.595418 ] } },
{ "type": "Feature", "properties": { "Station Name": "Rainier Square - Level E - Tesla Destination", "EV J3400 Connector Count": 12, "City": "Seattle" }, "geometry": { "type": "Point", "coordinates": [ -122.335342, 47.609191 ] } },
{ "type": "Feature", "properties": { "Station Name": "Residence Inn by Marriott Seattle University Distric - Tesla Destination", "EV J3400 Connector Count": 2, "City": "Seattle" }, "geometry": { "type": "Point", "coordinates": [ -122.315415, 47.661869 ] } },
{ "type": "Feature", "properties": { "Station Name": "Seattle Marriott Waterfront - Tesla Destination", "EV J3400 Connector Count": 2, "City": "Seattle" }, "geometry": { "type": "Point", "coordinates": [ -122.347258, 47.610845 ] } },
{ "type": "Feature", "properties": { "Station Name": "Seattle, WA - Fairview Avenue North (Floor 1) - Tesla Destination", "EV J3400 Connector Count": 6, "City": "Seattle" }, "geometry": { "type": "Point", "coordinates": [ -122.333176, 47.626144 ] } },
{ "type": "Feature", "properties": { "Station Name": "Seattle, WA - Union Street (Wall Connector) - Tesla Destination", "EV J3400 Connector Count": 5, "City": "Seattle" }, "geometry": { "type": "Point", "coordinates": [ -122.331887, 47.610142 ] } },
{ "type": "Feature", "properties": { "Station Name": "Shafer Baillie Mansion Bed & Breakfast - Tesla Destination", "EV J3400 Connector Count": 1, "City": "Seattle" }, "geometry": { "type": "Point", "coordinates": [ -122.314961, 47.627047 ] } },
{ "type": "Feature", "properties": { "Station Name": "Thompson Seattle - Tesla Destination", "EV J3400 Connector Count": 1, "City": "Seattle" }, "geometry": { "type": "Point", "coordinates": [ -122.341261, 47.610335 ] } },
{ "type": "Feature", "properties": { "Station Name": "Union Square - Tesla Supercharger", "EV J3400 Connector Count": 10, "City": "Seattle" }, "geometry": { "type": "Point", "coordinates": [ -122.332078, 47.610024 ] } },
{ "type": "Feature", "properties": { "Station Name": "Washington Athletic Club Garage - Tesla Destination", "EV J3400 Connector Count": 4, "City": "Seattle" }, "geometry": { "type": "Point", "coordinates": [ -122.333133, 47.609629 ] } }
]
}
